[{"id":"mqewt2um5lgw","name":"严总 友臻商贸","address":"秦太岁文化馆 碧水湾妙云街179-5号","phone":"13163969938","industry":"奢侈品手表","level":"B","notes":"中亚五国-哈萨克斯坦实体店，零售不批发","lat":24.890683083846383,"lng":118.60807083959722},{"id":"mqff0bull63c","name":"摩迪伦鞋业科技有限公司-王菁","address":"陈埭镇桂林村桂淮路70号","phone":"19966547694","industry":"鞋服","level":"B","notes":"厂二代，工厂，有给贸易公司供货，AI切入","lat":24.8034625519153,"lng":118.6025863146631},{"id":"mqfiwbj2x97e","name":"泉州市瑞济康网络科技有限公司","address":"丰泽区华园南路奥古狮登A栋5楼","phone":"18396219726","industry":"药膏","level":"B","notes":"主做国内电商，去年付了5.28万的套餐定金，最后因资金周转没有选择；如果有好的选品可以考虑入手布局，资金周转会在8月有所好转","lat":24.932864905901972,"lng":118.63499888150832},{"id":"mqghvwqq4b5r","name":"晋江众行远品牌管理有限公司","address":"陈埭镇宫口村碧潭东区245号","phone":"18859443999","industry":"鞋服","level":"C","notes":"AI切入，之前做国际站2次亏本（第二次是第三方公司代运营），但是说也不是不考虑国际站","visitDays":3,"visitDate":1781614389400,"lat":24.798357437008473,"lng":118.60691915993439},{"id":"mqghzm2rzkrh","name":"丰泽区六禾居品建材商行-杨总","address":"湖心街柏仁楼415号","phone":"13338577770","industry":"全屋定制","level":"B","notes":"全屋定制类，愿意了解，就是比较忙；\n616还在广州，回来会联系我，他记得这件事；","visitDays":4,"visitDate":1781613980992,"lat":24.908637388525275,"lng":118.60520117799868},{"id":"mqghzpdjmhel","name":"丰泽区六禾居品建材商行-杨总","address":"湖心街柏仁楼415号","phone":"13338577770","industry":"全屋定制","level":"C","notes":"全屋定制类，愿意了解，就是比较忙","lat":24.908637388525275,"lng":118.60520117799868},{"id":"mqgixyqbnez9","name":"泉州市天拓安全服务有限公司-何总","address":"晋江青阳街道曾井社区迎宾路145号","phone":"13599706601","industry":"安全消防、灭火器登","level":"C","notes":"注意强开时间-4天；\n两个公司，另一个晋江华友消防设施有限公司","visitDays":4,"visitDate":1781614360142,"lat":24.805605826118125,"lng":118.57138463655566},{"id":"mqgj9ro09zpa","name":"晋江市陈埭镇诚贵鞋厂-陆总","address":"晋江市陈埭镇宫口村碧潭东区256号","phone":"13799509236","industry":"鞋服","level":"B","notes":"报价过，聊过AW，要上门继续讲","lat":24.80234055920743,"lng":118.60686527090678},{"id":"mqgjfg3tei20","name":"大本营","address":"万达中心A座","phone":"","industry":"","level":"D","notes":"","lat":24.887218504828326,"lng":118.59225513429155},{"id":"mqgksyue2nsz","name":"泉州杉苑工艺品有限公司-胡总","address":"安溪县城厢镇光德村家居工艺城4A栋17号","phone":"18859593675","industry":"工艺品","level":"C","notes":"看七八月情况\n还是有意向的，要晚启动","lat":25.050401136965277,"lng":118.14908903666345},{"id":"mqgkt12mpb9a","name":"泉州杉苑工艺品有限公司-胡总","address":"安溪县城厢镇光德村家居工艺城4A栋17号","phone":"18859593675","industry":"工艺品","level":"C","notes":"看七八月情况\n还是有意向的，要晚启动","lat":25.050401136965277,"lng":118.14908903666345},{"id":"mqgm3cywq1k7","name":"霞美镇工优五金商行-李总","address":"南安市霞美镇创业大道2-240号","phone":"13600752116","industry":"五金","level":"C","notes":"应该被强开了6.21\n616晚打电话在电影院，忙","visitDays":5,"visitDate":1781614336255,"lat":24.937686029627557,"lng":118.45547739763295},{"id":"mqgnneplganp","name":"晋江市欧蒂设计有限公司-陈","address":"崇德路金融广场二期1A1401号","phone":"15392161625","industry":"灯具、定制设计","level":"C","notes":"合伙人说暂时不做电商这一块；年营业额200-300万","visitDays":6,"visitDate":1781615132985,"lat":24.801865045736065,"lng":118.57013345857625},{"id":"mqgwyhurdpsb","name":"陈思华（个人soho）","address":"美乐全屋定制-海西建材城A4栋101号","phone":"15280866316","industry":"家里是建材生意，想尝试另做选品外贸","level":"C","notes":"","visitDays":11,"visitDate":1781630766819,"lat":24.824612184854402,"lng":118.50752648078708},{"id":"mqgwz2ftl81h","name":"陈思华（个人soho）","address":"美乐全屋定制-海西建材城A4栋101号","phone":"15280866316","industry":"家里是建材生意，想尝试另做选品外贸","level":"C","notes":"磁灶那边还有个客户-建华","visitDays":11,"visitDate":1781630793497,"lat":24.824612184854402,"lng":118.50752648078708},{"id":"mqgx6q21zuyn","name":"泉州市玄易信息咨询有限公司-苏总","address":"安溪县凤城镇祥云路517号","phone":"15715967505","industry":"？不说","level":"C","notes":"安溪那边-好远，具体地址是否属实并没有电话确认","visitDays":14,"visitDate":1781631150697,"lat":25.06955965083122,"lng":118.17508942458224},{"id":"mqgxk6nu3qvk","name":"惠安县铭哲贸易商行（个体工商户）-张总","address":"惠安县东桥镇厝斗村埔脚94号","phone":"15159853720","industry":"鞋子","level":"C","notes":"转化周期较长，估计要下半年-8月看","visitDays":4,"visitDate":1781631778746,"lat":24.996761954504844,"lng":118.89997784173254},{"id":"mqgxqee8gvzq","name":"福建百宏聚纤科技实业有限公司","address":"龙湖镇枫林工业区百宏工业园新厂","phone":"13799523229","industry":"纤维","level":"C","notes":"外贸团队很成熟，不扩展渠道；公司实力确实很不错；\nAWB作为切入口，客户愿意了解","visitDays":null,"visitDate":null,"lat":24.657613216745496,"lng":118.62009290386197},{"id":"mqgxxnzzbi7n","name":"泉州市墨萃文化礼品有限公司-苏","address":"丰泽区霞福路10号（腾达广告后）","phone":"15106020805","industry":"气球配重balloon weights","level":"C","notes":"厂二代07年，有2家亚马逊店铺（头部商家），单店年产值1000w，店2正在拓展欧洲路线；\n觉得国际站目前不急上手（亚马逊管不过来，但是有一个亚马逊运营）","visitDays":null,"visitDate":null,"lat":24.919263194552066,"lng":118.63599064768002},{"id":"mqgyce53bza1","name":"丰记石仓-余总","address":"南安水头镇3号通道东升石材城d21号","phone":"13665925602","industry":"石材","level":"B","notes":"有做Facebook，有点狗；说话老是不怎么听，然后老是反驳，有种拽的样子","visitDays":null,"visitDate":null,"lat":24.705728250541284,"lng":118.41011466754823},{"id":"mqgynejmcvqm","name":"福建一统机械设备有限公司","address":"南安市霞美镇成辉国际创业大道4-679","phone":"18959962425","industry":"无人机","level":"A","notes":"等供应链合同确定，去周边客户时记得拜访；\n营业执照90%会用一统机械设备-4.58w套餐","visitDays":null,"visitDate":null,"lat":24.941297738125655,"lng":118.45867821478727}]