[{"id":"test1","name":"测试客户A","address":"泉州市丰泽区宝洲路万达广场","phone":"13800138000","industry":"电子产品","level":"A","notes":"测试同步","lat":24.88453,"lng":118.60497},{"id":"mqewt2um5lgw","name":"严总 友臻商贸","address":"秦太岁文化馆 碧水湾妙云街179-5号","phone":"13163969938","industry":"奢侈品手表","level":"B","notes":"中亚五国-哈萨克斯坦实体店，零售不批发","lat":24.890683083846383,"lng":118.60807083959722},{"id":"mqff0bull63c","name":"摩迪伦鞋业科技有限公司-王菁","address":"陈埭镇桂林村桂淮路70号","phone":"19966547694","industry":"鞋服","level":"B","notes":"厂二代，工厂，有给贸易公司供货，AI切入","lat":24.8034625519153,"lng":118.6025863146631},{"id":"mqfiwbj2x97e","name":"泉州市瑞济康网络科技有限公司","address":"丰泽区华园南路奥古狮登A栋5楼","phone":"18396219726","industry":"药膏","level":"B","notes":"主做国内电商，去年付了5.28万的套餐定金，最后因资金周转没有选择；如果有好的选品可以考虑入手布局，资金周转会在8月有所好转","lat":24.932864905901972,"lng":118.63499888150832},{"id":"mqghvwqq4b5r","name":"晋江众行远品牌管理有限公司","address":"陈埭镇宫口村碧潭东区245号","phone":"18859443999","industry":"鞋服","level":"C","notes":"AI切入，之前做国际站2次亏本（第二次是第三方公司代运营），但是说也不是不考虑国际站","lat":24.798357437008473,"lng":118.60691915993439},{"id":"mqghzm2rzkrh","name":"丰泽区六禾居品建材商行-杨总","address":"湖心街柏仁楼415号","phone":"13338577770","industry":"全屋定制","level":"B","notes":"全屋定制类，愿意了解，就是比较忙","lat":24.908637388525275,"lng":118.60520117799868}]