[{"id":"mqewt2um5lgw","name":"严总 友臻商贸","address":"秦太岁文化馆 碧水湾妙云街179-5号","phone":"13163969938","industry":"奢侈品手表","level":"B","notes":"中亚五国-哈萨克斯坦实体店，零售不批发","lat":24.890683083846383,"lng":118.60807083959722},{"id":"mqff0bull63c","name":"摩迪伦鞋业科技有限公司-王菁","address":"陈埭镇桂林村桂淮路70号","phone":"19966547694","industry":"鞋服","level":"B","notes":"厂二代，工厂，有给贸易公司供货，AI切入","lat":24.8034625519153,"lng":118.6025863146631},{"id":"mqfiwbj2x97e","name":"泉州市瑞济康网络科技有限公司","address":"丰泽区华园南路奥古狮登A栋5楼","phone":"18396219726","industry":"药膏","level":"B","notes":"主做国内电商，去年付了5.28万的套餐定金，最后因资金周转没有选择；如果有好的选品可以考虑入手布局，资金周转会在8月有所好转","lat":24.932864905901972,"lng":118.63499888150832},{"id":"mqghvwqq4b5r","name":"晋江众行远品牌管理有限公司","address":"陈埭镇宫口村碧潭东区245号","phone":"18859443999","industry":"鞋服","level":"C","notes":"AI切入，之前做国际站2次亏本（第二次是第三方公司代运营），但是说也不是不考虑国际站","visitDays":3,"visitDate":1781614389400,"lat":24.798357437008473,"lng":118.60691915993439},{"id":"mqghzm2rzkrh","name":"丰泽区六禾居品建材商行-杨总","address":"湖心街柏仁楼415号","phone":"13338577770","industry":"全屋定制","level":"B","notes":"全屋定制类，愿意了解，就是比较忙；\n616还在广州，回来会联系我，他记得这件事；","visitDays":4,"visitDate":1781613980992,"lat":24.908637388525275,"lng":118.60520117799868},{"id":"mqgixyqbnez9","name":"泉州市天拓安全服务有限公司-何总","address":"晋江青阳街道曾井社区迎宾路145号","phone":"13599706601","industry":"安全消防、灭火器登","level":"C","notes":"注意强开时间-4天；\n两个公司，另一个晋江华友消防设施有限公司","visitDays":4,"visitDate":1781614360142,"lat":24.805605826118125,"lng":118.57138463655566},{"id":"mqgj9ro09zpa","name":"晋江市陈埭镇诚贵鞋厂-陆总","address":"晋江市陈埭镇宫口村碧潭东区256号","phone":"13799509236","industry":"鞋服","level":"B","notes":"报价过，聊过AW，要上门继续讲","lat":24.80234055920743,"lng":118.60686527090678},{"id":"mqgjfg3tei20","name":"大本营","address":"万达中心A座","phone":"","industry":"","level":"D","notes":"","lat":24.887218504828326,"lng":118.59225513429155},{"id":"mqgkt12mpb9a","name":"泉州杉苑工艺品有限公司-胡总","address":"安溪县城厢镇光德村家居工艺城4A栋17号","phone":"18859593675","industry":"工艺品","level":"C","notes":"看七八月情况\n还是有意向的，要晚启动","lat":25.050401136965277,"lng":118.14908903666345},{"id":"mqgm3cywq1k7","name":"霞美镇工优五金商行-李总","address":"南安市霞美镇创业大道2-240号","phone":"13600752116","industry":"五金","level":"C","notes":"应该被强开了6.21\n616晚打电话在电影院，忙","visitDays":5,"visitDate":1781614336255,"lat":24.937686029627557,"lng":118.45547739763295},{"id":"mqgnneplganp","name":"晋江市欧蒂设计有限公司-陈","address":"崇德路金融广场二期1A1401号","phone":"15392161625","industry":"灯具、定制设计","level":"C","notes":"合伙人说暂时不做电商这一块；年营业额200-300万","visitDays":6,"visitDate":1781615132985,"lat":24.801865045736065,"lng":118.57013345857625},{"id":"mqgwyhurdpsb","name":"陈思华（个人soho）","address":"美乐全屋定制-海西建材城A4栋101号","phone":"15280866316","industry":"家里是建材生意，想尝试另做选品外贸","level":"C","notes":"","visitDays":11,"visitDate":1781630766819,"lat":24.824612184854402,"lng":118.50752648078708},{"id":"mqgwz2ftl81h","name":"陈思华（个人soho）","address":"美乐全屋定制-海西建材城A4栋101号","phone":"15280866316","industry":"家里是建材生意，想尝试另做选品外贸","level":"C","notes":"磁灶那边还有个客户-建华","visitDays":11,"visitDate":1781630793497,"lat":24.824612184854402,"lng":118.50752648078708},{"id":"mqgx6q21zuyn","name":"泉州市玄易信息咨询有限公司-苏总","address":"安溪县凤城镇祥云路517号","phone":"15715967505","industry":"？不说","level":"C","notes":"安溪那边-好远，具体地址是否属实并没有电话确认","visitDays":14,"visitDate":1781631150697,"lat":25.06955965083122,"lng":118.17508942458224},{"id":"mqgxk6nu3qvk","name":"惠安县铭哲贸易商行（个体工商户）-张总","address":"惠安县东桥镇厝斗村埔脚94号","phone":"15159853720","industry":"鞋子","level":"C","notes":"转化周期较长，估计要下半年-8月看","visitDays":4,"visitDate":1781631778746,"lat":24.996761954504844,"lng":118.89997784173254},{"id":"mqgxqee8gvzq","name":"福建百宏聚纤科技实业有限公司","address":"龙湖镇枫林工业区百宏工业园新厂","phone":"13799523229","industry":"纤维","level":"C","notes":"外贸团队很成熟，不扩展渠道；公司实力确实很不错；\nAWB作为切入口，客户愿意了解","visitDays":null,"visitDate":null,"lat":24.657613216745496,"lng":118.62009290386197},{"id":"mqgxxnzzbi7n","name":"泉州市墨萃文化礼品有限公司-苏","address":"丰泽区霞福路10号（腾达广告后）","phone":"15106020805","industry":"气球配重balloon weights","level":"C","notes":"厂二代07年，有2家亚马逊店铺（头部商家），单店年产值1000w，店2正在拓展欧洲路线；\n觉得国际站目前不急上手（亚马逊管不过来，但是有一个亚马逊运营）","visitDays":null,"visitDate":null,"lat":24.919263194552066,"lng":118.63599064768002},{"id":"mqgyce53bza1","name":"丰记石仓-余总","address":"南安水头镇3号通道东升石材城d21号","phone":"13665925602","industry":"石材","level":"B","notes":"有做Facebook，有点狗；说话老是不怎么听，然后老是反驳，有种拽的样子","visitDays":null,"visitDate":null,"lat":24.705728250541284,"lng":118.41011466754823},{"id":"mqgynejmcvqm","name":"福建一统机械设备有限公司","address":"南安市霞美镇成辉国际创业大道4-679","phone":"18959962425","industry":"无人机","level":"A","notes":"等供应链合同确定，去周边客户时记得拜访；\n营业执照90%会用一统机械设备-4.58w套餐","visitDays":null,"visitDate":null,"lat":24.941297738125655,"lng":118.45867821478727},{"id":"mqgyy6qvjzrq","name":"泉州智点众创科技有限公司 林熙","address":"丰泽区刺桐路112号领SHOW天地F座302室","phone":"13706965989","industry":"？","level":"C","notes":"有在做其他外贸平台，觉得阿里试错成本高，但朋友有在做国际站","visitDays":null,"visitDate":null,"lat":24.886651773087742,"lng":118.60369595621462},{"id":"mqgz5s7sjndd","name":"泉州乖巧龙商贸有限公司 黄细文","address":"方圆建设大厦","phone":"15159556904","industry":"？","level":"B","notes":"玩具类，这是新地址，目前杭州出差，以前做过外贸，好像意向度并不高","visitDays":null,"visitDate":null,"lat":24.94426711925743,"lng":118.66178599386049},{"id":"mqgz9hwr93a5","name":"晋江市青阳鑫利鞋业商行-吴建章","address":"青阳街道青华社区北区260号","phone":"15905073685","industry":"鞋子","level":"C","notes":"有在做抖音，每次电话都在开车，注意电话时间","visitDays":12,"visitDate":1781634639339,"lat":24.822815946916897,"lng":118.58421554498658},{"id":"mqgzd35omqog","name":"晋江众泰鞋材有限公司-kp张总","address":"陈埭镇桂林村桂林工业区","phone":"17750504053","industry":"鞋垫-供给给品牌方","level":"C","notes":"意向度不高；AW切入试试","visitDays":null,"visitDate":null,"lat":24.807840719507134,"lng":118.60009229093754},{"id":"mqgzfclzd7c9","name":"伟业铝材泉州总经销-张总","address":"城东街道霞兴路6-21","phone":"15906029496","industry":"铝材门窗","level":"B","notes":"主要是时间","visitDays":null,"visitDate":null,"lat":24.91821586730423,"lng":118.63694402617969},{"id":"mqgzgk6yf0xx","name":"艺嘉整体家居-张少文","address":"艺嘉整体家居","phone":"15392233378","industry":"全屋定制类","level":"B","notes":"主要也是时间问题，要跟进","visitDays":null,"visitDate":null,"lat":24.920940210998232,"lng":118.63677245793697},{"id":"mqgzhx1w7syf","name":"禾创全屋定制-赵总","address":"禾创全屋定制","phone":"13960237255","industry":"全屋定制-木板类","level":"C","notes":"现在主要国内业务，还不考虑自主外贸","visitDays":null,"visitDate":null,"lat":24.918555671578037,"lng":118.63739922431856},{"id":"mqhfekz0zfsv","name":"泉州晋江福春鞋材有限公司-雷","address":"晋江市晋新北路888号A区A2-083室","phone":"15859733323","industry":"面料？","level":"C","notes":"打几次电话都是有什么事微信说，但也不怎么回复的","visitDays":null,"visitDate":null,"lat":24.843821110856002,"lng":118.62516460626048},{"id":"mqhjy0huxpbo","name":"陈海青","address":"海伦箱包厂3楼金淘镇","phone":"18126759555","industry":"箱包","level":"C","notes":"最近很忙，邀约了25峰会，在忙等下看看报名-617","visitDays":13,"visitDate":1781669375490,"lat":25.129613036693645,"lng":118.33430781078725},{"id":"mqgksyue2nsz","name":"泉州杉苑工艺品有限公司-胡总","address":"安溪县城厢镇光德村家居工艺城4A栋17号","phone":"18859593675","industry":"工艺品","level":"C","notes":"看七八月情况\n还是有意向的，要晚启动","lat":25.050401136965277,"lng":118.14908903666345},{"id":"mqgyxx2xag33","name":"泉州智点众创科技有限公司 林熙","address":"丰泽区刺桐路112号领SHOW天地F座302室","phone":"13706965989","industry":"","level":"C","notes":"有在做其他外贸平台，觉得阿里试错成本高，但朋友有在做国际站","visitDays":null,"visitDate":null,"lat":24.886651773087742,"lng":118.60369595621462},{"id":"mqhhajyrq0xt","name":"鲤城海翔电子贸易商行-陈永福","address":"丰泽清源街道三远花园东北门","phone":"13959927909","industry":"综合类","level":"C","notes":"现在主做国内政企类的B端批发，综合类目产品；\n国内电商；\n不排斥了解","visitDays":null,"visitDate":null,"lat":24.924230947048073,"lng":118.57935565685602}]